City,Lat,Lng,Max Temp,Humidity,Cloudiness,Wind Speed,Country,Date,Current Description
Abbeville,50.1,1.8333,60.49,71,98,12.5,FR,2023-04-19 17:19:06,overcast clouds
Ushuaia,-54.8,-68.3,49.66,66,75,20.71,AR,2023-04-19 17:19:06,light rain
Xuddur,4.1213,43.8894,82.11,59,72,8.63,SO,2023-04-19 17:19:06,broken clouds
Mbandaka,0.0487,18.2603,83.14,63,95,4.32,CD,2023-04-19 17:19:07,overcast clouds
Tessalit,20.1986,1.0114,98.51,6,28,10.07,ML,2023-04-19 17:19:07,scattered clouds
Tuktoyaktuk,69.4541,-133.0374,14.0,85,100,3.44,CA,2023-04-19 17:19:07,overcast clouds
Gravdal,68.1214,13.5031,46.29,100,75,2.3,NO,2023-04-19 17:19:07,broken clouds
Busselton,-33.65,115.3333,56.93,61,0,7.72,AU,2023-04-19 17:19:07,clear sky
Rikitea,-23.1203,-134.9692,77.29,72,86,9.15,PF,2023-04-19 17:15:11,overcast clouds
Bathsheba,13.2167,-59.5167,84.81,65,40,14.97,BB,2023-04-19 17:19:07,scattered clouds
Avarua,-21.2078,-159.775,73.45,100,100,3.44,CK,2023-04-19 17:15:39,moderate rain
Cape Town,-33.9258,18.4232,69.39,67,100,4.0,ZA,2023-04-19 17:15:45,overcast clouds
Jamestown,42.097,-79.2353,48.52,69,20,9.22,US,2023-04-19 17:18:18,few clouds
Hermanus,-34.4187,19.2345,61.81,81,100,4.03,ZA,2023-04-19 17:19:08,overcast clouds
Matagami,49.7502,-77.6328,23.11,80,100,10.36,CA,2023-04-19 17:19:08,overcast clouds
Saint George,37.1041,-113.5841,55.44,30,0,9.22,US,2023-04-19 17:15:20,clear sky
Barra Patuca,15.8,-84.2833,85.86,59,45,11.74,HN,2023-04-19 17:19:08,scattered clouds
Mazarron,37.5992,-1.3149,66.15,50,84,15.59,ES,2023-04-19 17:19:08,broken clouds
Khatanga,71.9667,102.5,-10.88,100,51,1.72,RU,2023-04-19 17:19:08,broken clouds
Buala,-8.145,159.5921,78.01,79,47,3.2,SB,2023-04-19 17:19:09,scattered clouds
Bethel,41.3712,-73.414,53.64,52,100,12.66,US,2023-04-19 17:19:09,overcast clouds
Abha,18.2164,42.5053,66.02,77,20,11.5,SA,2023-04-19 17:19:09,few clouds
Korla,41.7597,86.1469,51.31,18,100,8.88,CN,2023-04-19 17:19:09,overcast clouds
Castro,-24.7911,-50.0119,65.88,54,0,14.16,BR,2023-04-19 17:19:09,clear sky
Honningsvag,70.9821,25.9704,40.75,87,75,37.98,NO,2023-04-19 17:19:10,broken clouds
Chuy,-33.6971,-53.4616,58.17,64,100,14.88,UY,2023-04-19 17:19:10,overcast clouds
Vaini,-21.2,-175.2,75.36,88,75,12.66,TO,2023-04-19 17:19:10,broken clouds
New Norfolk,-42.7826,147.0587,50.92,76,76,1.99,AU,2023-04-19 17:19:10,broken clouds
Lagos,6.5833,3.75,83.35,77,81,7.16,NG,2023-04-19 17:14:52,light rain
Santa Cruz Del Sur,20.7147,-77.9956,85.82,56,5,9.86,CU,2023-04-19 17:19:10,heavy intensity rain
Sao Filipe,14.8961,-24.4956,74.82,75,72,14.32,CV,2023-04-19 17:19:10,broken clouds
Ingham,42.6,-84.3833,56.17,54,0,0.0,US,2023-04-19 17:19:10,clear sky
Safonovo,55.15,33.2167,50.76,60,99,9.8,RU,2023-04-19 17:19:10,overcast clouds
Barrow,71.2906,-156.7887,-2.18,78,100,9.22,US,2023-04-19 17:19:10,overcast clouds
Hithadhoo,-0.6,73.0833,84.07,68,100,3.53,MV,2023-04-19 17:19:11,overcast clouds
Punta Arenas,-53.15,-70.9167,51.91,66,40,39.12,CL,2023-04-19 17:19:11,scattered clouds
Berlevag,70.8578,29.0864,40.95,75,75,24.16,NO,2023-04-19 17:19:11,broken clouds
Kulu,39.0951,33.0799,54.79,61,44,9.48,TR,2023-04-19 17:19:11,scattered clouds
Hilo,19.7297,-155.09,73.26,89,20,9.22,US,2023-04-19 17:19:10,few clouds
Cherskiy,68.75,161.3,22.53,97,100,4.21,RU,2023-04-19 17:19:11,overcast clouds
Bluff,-46.6,168.3333,52.81,86,10,7.67,NZ,2023-04-19 17:19:11,clear sky
Arucas,28.1198,-15.5233,68.83,69,74,11.65,ES,2023-04-19 17:19:11,broken clouds
Mataura,-46.1927,168.8643,52.48,99,29,1.05,NZ,2023-04-19 17:19:12,scattered clouds
Palmares Do Sul,-30.2578,-50.5097,68.59,34,49,19.91,BR,2023-04-19 17:19:12,scattered clouds
Carnarvon,-24.8667,113.6333,76.39,41,75,14.97,AU,2023-04-19 17:19:12,broken clouds
Dikson,73.5069,80.5464,8.56,96,96,11.39,RU,2023-04-19 17:19:12,overcast clouds
Port Alfred,-33.5906,26.891,78.19,72,56,10.38,ZA,2023-04-19 17:19:12,broken clouds
Pusad,19.9,77.5833,92.95,24,61,12.19,IN,2023-04-19 17:19:12,broken clouds
Clyde River,70.4692,-68.5914,8.83,78,20,0.0,CA,2023-04-19 17:19:12,few clouds
Kavieng,-2.5744,150.7967,79.39,81,62,1.88,PG,2023-04-19 17:19:12,moderate rain
Chokurdakh,70.6333,147.9167,-8.12,100,94,2.46,RU,2023-04-19 17:19:12,overcast clouds
Katsuura,35.1333,140.3,62.62,94,100,6.53,JP,2023-04-19 17:19:13,overcast clouds
Saint-Philippe,-21.3585,55.7679,78.39,84,53,12.75,RE,2023-04-19 17:19:13,light rain
Porto Walter,-8.2686,-72.7439,85.42,78,36,3.4,BR,2023-04-19 17:19:13,scattered clouds
Jacqueville,5.2052,-4.4146,83.19,79,82,7.7,CI,2023-04-19 17:19:13,broken clouds
Nongan,44.382,125.1685,57.47,39,100,12.55,CN,2023-04-19 17:19:13,moderate rain
Mar Del Plata,-38.0023,-57.5575,61.95,65,99,5.99,AR,2023-04-19 17:15:36,overcast clouds
Nikolskoye,59.7035,30.7861,51.69,90,7,7.02,RU,2023-04-19 17:19:13,clear sky
Puerto Ayora,-0.7393,-90.3518,85.96,91,99,3.0,EC,2023-04-19 17:15:26,moderate rain
Atuona,-9.8,-139.0333,81.39,68,19,8.68,PF,2023-04-19 17:19:13,few clouds
Albany,42.6001,-73.9662,46.85,66,80,1.99,US,2023-04-19 17:15:04,broken clouds
Kaduy,59.2,37.15,44.91,71,62,6.89,RU,2023-04-19 17:19:14,broken clouds
Tecoanapa,16.5167,-98.75,86.04,61,81,8.63,MX,2023-04-19 17:19:14,broken clouds
Juneau,58.3019,-134.4197,44.6,87,75,3.44,US,2023-04-19 17:15:35,broken clouds
Golden,39.7555,-105.2211,60.98,35,40,13.0,US,2023-04-19 17:19:14,scattered clouds
Lakes Entrance,-37.8811,147.981,42.17,75,62,6.55,AU,2023-04-19 17:19:14,broken clouds
Kaitangata,-46.2817,169.8464,46.31,95,26,4.16,NZ,2023-04-19 17:19:14,scattered clouds
Lampazos De Naranjo,27.0167,-100.5167,85.3,51,32,6.8,MX,2023-04-19 17:19:14,scattered clouds
Faanui,-16.4833,-151.75,82.47,78,89,15.55,PF,2023-04-19 17:19:14,overcast clouds
Tabuk,17.4189,121.4443,75.4,88,0,2.33,PH,2023-04-19 17:14:21,clear sky
Butaritari,3.0707,172.7902,82.36,76,43,11.27,KI,2023-04-19 17:19:15,scattered clouds
Sitka,57.0531,-135.33,44.49,65,75,3.44,US,2023-04-19 17:15:14,broken clouds
Ekhabi,53.5102,142.9671,30.18,89,99,10.96,RU,2023-04-19 17:19:15,overcast clouds
Conselheiro Lafaiete,-20.6603,-43.7861,73.42,82,100,13.18,BR,2023-04-19 17:19:15,overcast clouds
Te Anau,-45.4167,167.7167,46.09,91,53,1.16,NZ,2023-04-19 17:19:15,broken clouds
Lebu,-37.6167,-73.65,57.15,87,43,20.83,CL,2023-04-19 17:15:53,scattered clouds
Ivanivka,46.7208,34.553,49.59,91,80,7.72,UA,2023-04-19 17:19:15,broken clouds
Caravelas,-17.7125,-39.2481,93.67,50,11,11.05,BR,2023-04-19 17:19:16,few clouds
Tabou,4.423,-7.3528,84.51,70,76,10.6,CI,2023-04-19 17:19:16,broken clouds
San Jeronimo,-11.9472,-75.2829,62.31,55,24,1.41,PE,2023-04-19 17:19:16,few clouds
Qaanaaq,77.484,-69.3632,7.25,75,22,3.65,GL,2023-04-19 17:19:16,few clouds
Megion,61.0296,76.1136,23.02,93,94,12.1,RU,2023-04-19 17:19:16,overcast clouds
Pemba,-12.974,40.5178,79.5,83,75,11.5,MZ,2023-04-19 17:19:16,light rain
Waipawa,-41.4122,175.5153,55.33,96,94,2.8,NZ,2023-04-19 17:19:16,overcast clouds
Rosetta,31.4044,30.4164,63.59,74,60,12.84,EG,2023-04-19 17:19:16,broken clouds
Palmer,42.1584,-72.3287,50.47,51,100,10.36,US,2023-04-19 17:16:36,smoke
Suntar,62.1444,117.6319,11.53,96,100,2.95,RU,2023-04-19 17:19:16,overcast clouds
Pangnirtung,66.1451,-65.7125,12.2,67,20,4.61,CA,2023-04-19 17:19:16,few clouds
Vila Franca Do Campo,37.7167,-25.4333,63.01,83,90,22.15,PT,2023-04-19 17:19:17,light rain
Ribeira Grande,38.5167,-28.7,57.78,88,75,3.44,PT,2023-04-19 17:19:17,moderate rain
Boende,-0.2167,20.8667,81.39,61,90,2.21,CD,2023-04-19 17:19:17,overcast clouds
Souillac,-20.5167,57.5167,79.18,78,40,12.66,MU,2023-04-19 17:19:17,light rain
Nouadhibou,20.931,-17.0347,73.38,68,51,19.57,MR,2023-04-19 17:19:17,broken clouds
Arraial Do Cabo,-22.9661,-42.0278,76.86,88,75,18.41,BR,2023-04-19 17:17:28,broken clouds
Rawson,-43.3002,-65.1023,73.9,43,17,16.37,AR,2023-04-19 17:19:17,few clouds
Siverek,37.755,39.3167,59.67,81,100,10.83,TR,2023-04-19 17:19:17,overcast clouds
Lahij,13.1667,44.5833,81.34,54,3,8.3,YE,2023-04-19 17:19:17,clear sky
Mut,36.6439,33.4389,63.34,66,58,9.26,TR,2023-04-19 17:19:17,broken clouds
Rio Gallegos,-51.6226,-69.2181,62.65,45,20,33.38,AR,2023-04-19 17:19:17,few clouds
Soe,-9.8607,124.284,61.99,93,43,2.42,ID,2023-04-19 17:19:17,scattered clouds
San Patricio,28.017,-97.5169,80.85,64,93,17.9,US,2023-04-19 17:19:17,overcast clouds
Port Elizabeth,-33.918,25.5701,71.31,69,0,6.91,ZA,2023-04-19 17:19:18,clear sky
Tiksi,71.6872,128.8694,-8.07,100,100,3.91,RU,2023-04-19 17:19:18,overcast clouds
Hobart,-42.8794,147.3294,51.26,72,40,6.91,AU,2023-04-19 17:18:18,scattered clouds
Port Hedland,-20.3167,118.5667,69.85,43,52,9.22,AU,2023-04-19 17:19:18,broken clouds
Kapaa,22.0752,-159.319,69.78,89,20,11.5,US,2023-04-19 17:18:41,few clouds
Bandarbeyla,9.4942,50.8122,82.69,68,48,10.42,SO,2023-04-19 17:19:18,scattered clouds
Karasburg,-28.0167,18.75,80.53,22,64,15.93,NA,2023-04-19 17:19:18,broken clouds
Lata,40.1629,-8.3327,73.92,38,0,8.08,PT,2023-04-19 17:19:18,clear sky
Gazanjyk,39.2446,55.5154,64.53,11,6,16.58,TM,2023-04-19 17:19:19,clear sky
Kavaratti,10.5669,72.642,84.04,72,18,9.53,IN,2023-04-19 17:19:14,few clouds
Inhambane,-23.865,35.3833,71.91,77,28,7.2,MZ,2023-04-19 17:19:19,scattered clouds
Lodja,-3.4833,23.4333,78.13,73,92,3.2,CD,2023-04-19 17:19:19,overcast clouds
Posse,-14.0931,-46.3694,89.13,39,31,6.87,BR,2023-04-19 17:19:19,scattered clouds
Binon-An,11.3947,123.1426,81.57,80,7,5.97,PH,2023-04-19 17:19:19,clear sky
Ko Samui,9.5357,99.9357,85.23,73,14,6.24,TH,2023-04-19 17:19:20,few clouds
Mahebourg,-20.4081,57.7,80.26,78,40,12.66,MU,2023-04-19 17:19:20,light rain
Voh,-20.9667,164.7,69.89,90,1,1.86,NC,2023-04-19 17:19:20,clear sky
Vaitape,-16.5167,-151.75,82.47,78,88,15.57,PF,2023-04-19 17:19:20,overcast clouds
Adrar,20.5022,-10.0711,92.75,13,9,11.86,MR,2023-04-19 17:19:20,clear sky
Ust-Maya,60.4167,134.5333,3.18,100,93,1.01,RU,2023-04-19 17:19:20,overcast clouds
Vao,-22.6667,167.4833,77.47,75,45,9.57,NC,2023-04-19 17:19:20,scattered clouds
Pevek,69.7008,170.3133,22.82,83,100,8.39,RU,2023-04-19 17:19:20,overcast clouds
Ferkessedougou,9.6,-5.2,93.43,33,90,10.27,CI,2023-04-19 17:19:21,overcast clouds
La Ronge,55.1001,-105.2842,32.25,51,75,16.11,CA,2023-04-19 17:19:21,broken clouds
Kralendijk,12.15,-68.2667,85.98,58,40,17.27,BQ,2023-04-19 17:19:21,scattered clouds
Bonthe,7.5264,-12.505,85.89,65,99,11.61,SL,2023-04-19 17:16:21,overcast clouds
Lasa,46.6166,10.7002,56.7,80,76,4.68,IT,2023-04-19 17:19:21,broken clouds
Georgetown,5.4112,100.3354,84.13,70,20,6.91,MY,2023-04-19 17:18:46,few clouds
Victoria,22.2855,114.1577,75.96,92,98,4.0,HK,2023-04-19 17:15:30,overcast clouds
Seoul,37.5683,126.9778,63.79,94,75,8.05,KR,2023-04-19 17:19:21,light intensity drizzle
Isangel,-19.55,169.2667,77.09,80,74,4.27,VU,2023-04-19 17:19:21,broken clouds
Alofi,-19.0595,-169.9187,80.11,84,100,19.73,NU,2023-04-19 17:16:07,light rain
Namibe,-15.1961,12.1522,78.75,74,86,10.98,AO,2023-04-19 17:19:22,overcast clouds
East London,-33.0153,27.9116,72.54,83,0,4.61,ZA,2023-04-19 17:16:21,clear sky
Mecca,21.4267,39.8261,85.95,53,2,11.5,SA,2023-04-19 17:19:22,clear sky
Itaituba,-4.2761,-55.9836,85.55,76,95,2.91,BR,2023-04-19 17:14:49,overcast clouds
North Branford,41.3276,-72.7673,53.69,51,100,16.11,US,2023-04-19 17:19:22,overcast clouds
Khanpur,28.6453,70.6567,86.68,11,69,10.18,PK,2023-04-19 17:19:22,broken clouds
Padang,-0.9492,100.3543,77.05,87,100,2.17,ID,2023-04-19 17:19:22,overcast clouds
Valparaiso,-33.0393,-71.6273,86.23,18,0,9.22,CL,2023-04-19 17:19:22,clear sky
Tasiilaq,65.6145,-37.6368,35.56,99,100,6.53,GL,2023-04-19 17:19:23,light rain
Tazovskiy,67.4667,78.7,12.88,98,100,4.65,RU,2023-04-19 17:15:20,overcast clouds
Bredasdorp,-34.5322,20.0403,64.38,61,100,2.93,ZA,2023-04-19 17:19:23,overcast clouds
Santona,43.4439,-3.4576,70.11,69,0,5.39,ES,2023-04-19 17:19:24,clear sky
Chokwe,-24.5333,32.9833,71.24,61,0,7.9,MZ,2023-04-19 17:19:24,clear sky
Avera,33.194,-82.5271,85.91,36,0,1.3,US,2023-04-19 17:19:24,clear sky
Kitgum,3.2783,32.8867,76.03,61,43,4.12,UG,2023-04-19 17:19:24,scattered clouds
Preobrazheniye,42.9019,133.9064,44.13,58,100,6.35,RU,2023-04-19 17:16:52,overcast clouds
Soavinandriana,-19.1667,46.7333,59.54,90,12,3.96,MG,2023-04-19 17:19:24,few clouds
Ukiah,39.1502,-123.2078,53.44,58,0,4.61,US,2023-04-19 17:19:24,clear sky
Luderitz,-26.6481,15.1594,57.34,96,50,7.74,NA,2023-04-19 17:15:51,scattered clouds
Atar,20.5169,-13.0499,90.82,11,27,15.93,MR,2023-04-19 17:19:24,scattered clouds
Longyearbyen,78.2186,15.6401,21.04,63,20,11.5,SJ,2023-04-19 17:19:25,few clouds
Taoudenni,22.6783,-3.9836,100.85,10,13,20.51,ML,2023-04-19 17:16:09,few clouds
Severo-Kurilsk,50.6789,156.125,32.23,96,97,14.72,RU,2023-04-19 17:19:25,light snow
Alta Floresta,-9.8756,-56.0861,93.02,55,40,3.44,BR,2023-04-19 17:19:25,scattered clouds
Beyneu,45.3167,55.2,55.54,26,100,20.8,KZ,2023-04-19 17:19:25,overcast clouds
Narsaq,60.9167,-46.05,44.82,89,76,2.15,GL,2023-04-19 17:19:25,broken clouds
Yellowknife,62.456,-114.3525,30.56,58,22,11.01,CA,2023-04-19 17:15:43,few clouds
Thompson,55.7435,-97.8558,26.76,50,75,8.05,CA,2023-04-19 17:19:26,broken clouds
Bambous Virieux,-20.3428,57.7575,80.22,78,40,12.66,MU,2023-04-19 17:19:26,light rain
Upernavik,72.7868,-56.1549,17.65,86,100,10.85,GL,2023-04-19 17:18:12,overcast clouds
Thunder Bay,48.4001,-89.3168,35.1,76,37,8.32,CA,2023-04-19 17:15:17,scattered clouds
San Cristobal,7.7669,-72.225,75.38,55,100,4.29,VE,2023-04-19 17:19:26,overcast clouds
Coquimbo,-29.9533,-71.3436,67.73,55,0,13.8,CL,2023-04-19 17:19:26,clear sky
Shevchenkove,49.6959,37.1735,48.4,88,100,13.71,UA,2023-04-19 17:19:26,moderate rain
Fort Nelson,58.8053,-122.7002,34.95,92,100,1.99,CA,2023-04-19 17:14:42,overcast clouds
Hazorasp,41.3194,61.0742,53.44,14,0,11.34,UZ,2023-04-19 17:19:27,clear sky
Muravlenko,63.7898,74.523,26.8,91,96,13.06,RU,2023-04-19 17:19:27,overcast clouds
Sorland,67.667,12.6934,44.46,99,100,12.68,NO,2023-04-19 17:19:27,overcast clouds
Tarabuco,-19.1667,-64.9167,58.57,50,74,4.21,BO,2023-04-19 17:19:27,broken clouds
Marawi,7.9986,124.2928,70.99,92,97,0.36,PH,2023-04-19 17:19:27,overcast clouds
Yulara,-25.2406,130.9889,59.68,54,0,16.98,AU,2023-04-19 17:19:27,clear sky
Nouna,12.7333,-3.8667,104.41,10,60,5.77,BF,2023-04-19 17:19:27,broken clouds
Fukue,32.6881,128.8419,62.49,85,83,6.02,JP,2023-04-19 17:19:28,broken clouds
Laguna,38.421,-121.4238,57.49,62,0,3.44,US,2023-04-19 17:17:57,clear sky
Grenaa,56.4158,10.8783,55.62,66,1,16.82,DK,2023-04-19 17:19:28,clear sky
Iralaya,15.0,-83.2333,84.49,61,7,10.45,HN,2023-04-19 17:18:14,clear sky
Calawag,10.6697,119.5707,78.71,84,63,1.79,PH,2023-04-19 17:19:28,broken clouds
Fortuna,40.5982,-124.1573,47.91,83,27,1.01,US,2023-04-19 17:19:28,scattered clouds
Nuuk,64.1835,-51.7216,30.81,80,75,9.22,GL,2023-04-19 17:16:36,broken clouds
Bilma,18.6853,12.9164,97.88,10,65,14.92,NE,2023-04-19 17:19:28,broken clouds
Los Llanos De Aridane,28.6585,-17.9182,66.13,75,75,9.22,ES,2023-04-19 17:19:28,broken clouds
Kaoma,-14.7833,24.8,69.03,59,95,3.62,ZM,2023-04-19 17:19:28,overcast clouds
Abu Samrah,35.3029,37.1841,69.57,51,92,3.71,SY,2023-04-19 17:19:29,overcast clouds
Moose Factory,51.2585,-80.6094,23.0,80,100,12.66,CA,2023-04-19 17:19:29,overcast clouds
Lompoc,34.6391,-120.4579,65.01,53,20,18.99,US,2023-04-19 17:19:29,few clouds
Rosarito,32.3333,-117.0333,63.63,62,84,3.44,MX,2023-04-19 17:19:29,broken clouds
Marabba,12.35,32.1833,98.55,7,16,6.02,SD,2023-04-19 17:19:29,few clouds
Verkhneyarkeyevo,55.4505,54.3145,48.67,70,100,6.4,RU,2023-04-19 17:19:29,overcast clouds
Torbay,47.6666,-52.7314,38.17,81,75,17.27,CA,2023-04-19 17:19:29,heavy intensity rain
Nanortalik,60.1432,-45.2371,33.71,85,82,3.13,GL,2023-04-19 17:19:30,broken clouds
Kyra,49.5776,111.9753,20.28,43,11,10.11,RU,2023-04-19 17:19:30,few clouds
Ponta Do Sol,32.6667,-17.1,70.43,70,57,2.51,PT,2023-04-19 17:19:30,broken clouds
Dunedin,-45.8742,170.5036,54.81,95,10,1.99,NZ,2023-04-19 17:15:24,clear sky
Saskylakh,71.9167,114.0833,-12.78,100,77,3.91,RU,2023-04-19 17:19:30,broken clouds
Male,4.1748,73.5089,85.95,79,20,2.3,MV,2023-04-19 17:19:30,few clouds
Airai,-8.9266,125.4092,58.3,97,68,2.64,TL,2023-04-19 17:19:31,broken clouds
Belmonte,-15.8631,-38.8828,86.22,72,34,14.07,BR,2023-04-19 17:19:31,scattered clouds
Bolshaya Dzhalga,45.9695,42.6966,54.63,62,22,19.62,RU,2023-04-19 17:19:31,few clouds
College,64.8569,-147.8028,21.58,65,40,5.75,US,2023-04-19 17:15:29,scattered clouds
Vestmannaeyjar,63.4427,-20.2734,47.39,100,100,19.57,IS,2023-04-19 17:19:31,fog
Pacific Grove,36.6177,-121.9166,57.02,63,0,11.99,US,2023-04-19 17:16:59,clear sky
Horsens,55.8607,9.8503,55.24,49,1,13.89,DK,2023-04-19 17:19:31,clear sky
Key West,24.5557,-81.7826,81.0,54,40,12.66,US,2023-04-19 17:17:45,scattered clouds
Tilichiki,60.4667,166.1,31.39,91,100,30.94,RU,2023-04-19 17:19:31,light snow
Tiarei,-17.5333,-149.3333,78.82,81,74,15.26,PF,2023-04-19 17:19:31,broken clouds
Cabedelo,-6.9811,-34.8339,90.27,71,86,8.39,BR,2023-04-19 17:19:32,overcast clouds
Grindavik,63.8424,-22.4338,53.55,100,75,24.16,IS,2023-04-19 17:19:32,broken clouds
Taman,45.2117,36.7161,53.24,89,41,10.47,RU,2023-04-19 17:19:32,scattered clouds
Lianzhou,24.7811,112.3825,71.35,97,39,2.33,CN,2023-04-19 17:19:32,scattered clouds
Andra,62.5147,65.8878,32.02,90,90,8.3,RU,2023-04-19 17:19:32,overcast clouds
Viedma,-40.8135,-62.9967,67.75,41,15,9.04,AR,2023-04-19 17:19:32,few clouds
Morondava,-20.2833,44.2833,79.05,80,7,10.67,MG,2023-04-19 17:19:32,light rain
Dukat,62.55,155.55,20.23,97,100,5.3,RU,2023-04-19 17:19:32,overcast clouds
Puerto Penasco,31.3167,-113.5333,68.59,64,0,5.99,MX,2023-04-19 17:19:32,clear sky
Toamasina,-18.1667,49.3833,77.0,88,40,6.91,MG,2023-04-19 17:19:33,light rain
Soyo,-6.1349,12.3689,81.97,86,44,9.42,AO,2023-04-19 17:19:33,moderate rain
Pontianak,-0.0333,109.3333,80.58,88,40,2.3,ID,2023-04-19 17:19:33,scattered clouds
Kodiak,57.79,-152.4072,36.91,56,40,13.8,US,2023-04-19 17:19:33,scattered clouds
West Odessa,31.8424,-102.4988,82.67,20,0,16.11,US,2023-04-19 17:19:33,clear sky
Komsomolskiy,40.4272,71.7189,52.52,50,58,9.22,UZ,2023-04-19 17:19:33,broken clouds
Kinkala,-4.3614,14.7644,78.24,81,100,1.83,CG,2023-04-19 17:19:34,overcast clouds
Storforshei,66.4043,14.5233,46.18,61,75,3.44,NO,2023-04-19 17:19:34,broken clouds
Toba,34.4833,136.85,60.8,89,100,4.16,JP,2023-04-19 17:19:34,overcast clouds
Samarai,-10.6167,150.6667,79.77,75,31,8.5,PG,2023-04-19 17:19:34,scattered clouds
Yumen,40.2833,97.2,39.56,13,13,15.01,CN,2023-04-19 17:19:34,few clouds
Manzil Salim,35.8567,8.4765,73.63,29,92,11.83,TN,2023-04-19 17:19:34,overcast clouds
Mocuba,-16.8392,36.9856,69.8,95,51,3.8,MZ,2023-04-19 17:19:34,broken clouds
Beringovskiy,63.05,179.3167,19.58,96,29,8.9,RU,2023-04-19 17:19:34,scattered clouds
Namatanai,-3.6667,152.4333,78.15,82,59,3.56,PG,2023-04-19 17:19:34,broken clouds
Hambantota,6.1241,81.1185,82.49,76,11,7.7,LK,2023-04-19 17:19:35,few clouds
Kidal,18.4411,1.4078,100.69,3,93,5.57,ML,2023-04-19 17:19:35,overcast clouds
Pacifica,37.6138,-122.4869,57.42,65,20,13.8,US,2023-04-19 17:19:35,few clouds
Flinders,-34.5833,150.8552,64.38,82,100,7.0,AU,2023-04-19 17:19:35,light rain
Ixtapa,20.7,-105.2,78.03,69,0,5.75,MX,2023-04-19 17:19:35,clear sky
Atambua,-9.1061,124.8925,70.21,89,50,6.08,ID,2023-04-19 17:19:35,scattered clouds
Nizwa,22.9333,57.5333,82.96,30,71,6.15,OM,2023-04-19 17:19:35,broken clouds
Prado,-17.3411,-39.2208,87.67,68,33,13.56,BR,2023-04-19 17:17:26,scattered clouds
Chicama,-7.8447,-79.1469,79.34,66,99,10.58,PE,2023-04-19 17:19:36,overcast clouds
Port-Gentil,-0.7193,8.7815,84.16,84,40,13.8,GA,2023-04-19 17:19:36,light rain
Miraflores,19.2167,-98.8083,75.02,23,78,4.74,MX,2023-04-19 17:19:36,broken clouds
Trairi,-3.2778,-39.2689,84.79,72,95,5.44,BR,2023-04-19 17:19:28,overcast clouds
Bubaque,11.2833,-15.8333,81.34,74,30,15.7,GW,2023-04-19 17:19:36,scattered clouds
Cap Malheureux,-19.9842,57.6142,80.47,76,8,5.99,MU,2023-04-19 17:19:36,clear sky
Svetlaya,46.5389,138.3297,40.15,78,35,5.21,RU,2023-04-19 17:19:36,scattered clouds
Chapais,49.7834,-74.8492,26.38,74,100,9.95,CA,2023-04-19 17:19:36,overcast clouds
Petropavlovsk-Kamchatskiy,53.0452,158.6483,34.39,75,75,8.95,RU,2023-04-19 17:19:36,broken clouds
Derzhavinsk,51.1,66.3167,38.59,90,92,8.19,KZ,2023-04-19 17:19:36,overcast clouds
Brylivka,46.4248,33.1472,53.11,88,90,7.87,UA,2023-04-19 17:19:36,overcast clouds
Cidreira,-30.1811,-50.2056,68.27,37,45,20.07,BR,2023-04-19 17:19:37,scattered clouds
Watertown,42.3709,-71.1828,50.56,47,100,14.97,US,2023-04-19 17:17:20,overcast clouds
Kamensk-Uralskiy,56.4185,61.9329,39.74,34,4,7.05,RU,2023-04-19 17:19:37,clear sky
Savannah Bight,16.45,-85.85,80.83,73,69,15.01,HN,2023-04-19 17:19:37,broken clouds
Choya,52.0108,86.5467,12.51,99,83,2.95,RU,2023-04-19 17:19:37,broken clouds
Ahipara,-35.1667,173.1667,67.15,91,97,9.51,NZ,2023-04-19 17:19:37,overcast clouds
Traverse City,44.7631,-85.6206,43.84,66,100,8.05,US,2023-04-19 17:19:37,overcast clouds
Paamiut,61.994,-49.6678,31.75,83,100,2.08,GL,2023-04-19 17:19:37,overcast clouds
Norman Wells,65.282,-126.8329,15.84,92,75,5.75,CA,2023-04-19 17:19:37,broken clouds
Paka,4.6374,103.4368,80.53,94,96,0.0,MY,2023-04-19 17:19:37,overcast clouds
Plettenberg Bay,-34.0527,23.3716,66.0,70,97,6.31,ZA,2023-04-19 17:19:37,overcast clouds
Vostok,46.4856,135.8833,35.56,88,93,4.63,RU,2023-04-19 17:19:37,light rain
Burley,42.5357,-113.7928,40.19,35,0,17.27,US,2023-04-19 17:19:38,clear sky
Sal Rei,16.1833,-22.9167,75.4,69,75,19.57,CV,2023-04-19 17:19:38,broken clouds
Boa Vista,2.8197,-60.6733,89.58,48,40,11.5,BR,2023-04-19 17:19:38,scattered clouds
Ostrovnoy,68.0531,39.5131,36.46,98,100,17.16,RU,2023-04-19 17:19:38,light rain
Kalemie,-5.9475,29.1947,73.78,83,84,4.32,CD,2023-04-19 17:19:38,broken clouds
Merauke,-8.4667,140.3333,76.96,87,66,3.04,ID,2023-04-19 17:19:38,broken clouds
Hvolsvollur,63.7533,-20.2243,47.07,78,99,6.91,IS,2023-04-19 17:19:38,overcast clouds
Codrington,-38.2667,141.9667,51.24,82,59,7.43,AU,2023-04-19 17:19:39,broken clouds
Dalhousie,32.5333,75.9833,47.48,81,90,7.11,IN,2023-04-19 17:19:39,overcast clouds
Tateyama,34.9833,139.8667,62.53,88,75,8.05,JP,2023-04-19 17:19:39,mist
Pahrump,36.2083,-115.9839,60.26,15,0,13.0,US,2023-04-19 17:19:39,clear sky
Mackay,-21.15,149.2,68.68,76,1,10.02,AU,2023-04-19 17:19:15,clear sky
Muros,42.7762,-9.0603,66.15,76,19,7.02,ES,2023-04-19 17:19:39,few clouds
Ancud,-41.8697,-73.8203,58.66,87,99,3.22,CL,2023-04-19 17:19:39,overcast clouds
Bosaso,11.2842,49.1816,81.46,73,10,1.77,SO,2023-04-19 17:19:39,clear sky
Esperance,-33.8667,121.9,55.94,71,2,9.89,AU,2023-04-19 17:19:39,clear sky
Teya,60.3778,92.6267,16.74,94,100,5.21,RU,2023-04-19 17:19:40,overcast clouds
Guntakal,15.1667,77.3833,90.39,17,0,6.96,IN,2023-04-19 17:19:40,clear sky
Husavik,66.0449,-17.3389,51.03,74,46,6.6,IS,2023-04-19 17:19:40,scattered clouds
Bada,51.392,109.8717,18.79,69,48,6.76,RU,2023-04-19 17:15:15,scattered clouds
Aykhal,66.0,111.5,4.41,100,96,5.48,RU,2023-04-19 17:19:40,overcast clouds
Salalah,17.0151,54.0924,84.29,70,40,5.75,OM,2023-04-19 17:19:40,scattered clouds
Itaporanga,-7.3044,-38.1503,92.03,43,100,4.16,BR,2023-04-19 17:19:40,overcast clouds
Canals,38.9625,-0.5844,67.21,43,95,3.0,ES,2023-04-19 17:19:40,overcast clouds
Muroto,33.2833,134.15,64.98,91,100,5.73,JP,2023-04-19 17:19:40,overcast clouds
Sioux Lookout,50.1001,-91.917,33.8,56,100,11.99,CA,2023-04-19 17:15:24,overcast clouds
Yoichi,43.2039,140.7703,43.93,84,78,10.25,JP,2023-04-19 17:19:40,moderate rain
Bengkulu,-3.8004,102.2655,77.41,88,97,2.42,ID,2023-04-19 17:19:40,overcast clouds
Acari,-15.4311,-74.6158,81.66,49,11,10.74,PE,2023-04-19 17:19:40,few clouds
Richards Bay,-28.783,32.0377,72.55,80,0,12.19,ZA,2023-04-19 17:19:40,clear sky
Erzin,36.9559,36.2,65.64,70,100,4.41,TR,2023-04-19 17:19:41,overcast clouds
Vigrestad,58.5667,5.7,58.68,76,7,5.32,NO,2023-04-19 17:19:41,clear sky
Kaspiyskiy,45.3929,47.3707,54.09,54,73,19.26,RU,2023-04-19 17:19:41,broken clouds
Lagoa,39.05,-27.9833,56.48,86,100,21.56,PT,2023-04-19 17:19:41,moderate rain
Sao Joao Da Barra,-21.6403,-41.0511,86.09,53,91,19.04,BR,2023-04-19 17:19:41,overcast clouds
Saldanha,-33.0117,17.9442,62.4,79,100,5.73,ZA,2023-04-19 17:19:41,overcast clouds
Alausi,-2.2,-78.8333,54.43,87,97,2.91,EC,2023-04-19 17:19:41,moderate rain
Fondi,41.3541,13.4313,62.82,81,29,5.73,IT,2023-04-19 17:19:41,scattered clouds
Naze,28.3667,129.4833,65.05,96,100,12.17,JP,2023-04-19 17:15:18,overcast clouds
Poum,-20.2333,164.0167,77.58,74,0,10.27,NC,2023-04-19 17:19:41,clear sky
Lorengau,-2.0226,147.2712,79.56,82,75,5.28,PG,2023-04-19 17:19:42,broken clouds
Dondo,-19.6094,34.7431,76.51,80,23,4.88,MZ,2023-04-19 17:19:42,few clouds
Kudahuvadhoo,2.6708,72.8944,83.95,68,100,1.28,MV,2023-04-19 17:16:18,overcast clouds
Wanning,18.8003,110.3967,78.04,95,11,12.75,CN,2023-04-19 17:19:42,few clouds
Beysehir,37.6773,31.7246,51.8,57,1,10.58,TR,2023-04-19 17:19:42,clear sky
Port Lincoln,-34.7333,135.8667,58.62,64,99,6.82,AU,2023-04-19 17:15:25,overcast clouds
Awjilah,29.1081,21.2869,74.5,19,0,11.68,LY,2023-04-19 17:19:42,clear sky
Tubara,10.8744,-74.9789,90.55,62,42,9.57,CO,2023-04-19 17:19:42,scattered clouds
Myski,53.709,87.8014,21.67,92,79,6.69,RU,2023-04-19 17:19:42,broken clouds
Zhanakorgan,43.9098,67.2495,53.6,17,0,16.75,KZ,2023-04-19 17:19:42,clear sky
Leningradskiy,69.3833,178.4167,20.79,80,100,5.12,RU,2023-04-19 17:19:42,overcast clouds
Makariv,50.4641,29.8113,55.18,62,100,12.21,UA,2023-04-19 17:19:42,overcast clouds
Kill,52.1761,-7.335,55.81,74,75,16.11,IE,2023-04-19 17:19:43,broken clouds
Celestun,20.8667,-90.4,85.89,53,3,6.78,MX,2023-04-19 17:19:43,clear sky
Constitucion,-35.3333,-72.4167,65.41,58,58,11.86,CL,2023-04-19 17:19:43,broken clouds
Cheran,19.6833,-101.95,67.6,19,97,4.61,MX,2023-04-19 17:19:43,overcast clouds
Tuatapere,-46.1333,167.6833,48.34,93,19,2.44,NZ,2023-04-19 17:19:43,few clouds
Guerrero Negro,27.9769,-114.0611,61.63,63,65,21.18,MX,2023-04-19 17:19:43,broken clouds
Yevlax,40.6089,47.1492,60.78,67,0,2.3,AZ,2023-04-19 17:19:44,clear sky
Qui Nhon,13.7667,109.2333,79.59,82,3,6.69,VN,2023-04-19 17:19:31,clear sky
Majene,-3.5403,118.9707,78.4,89,91,2.46,ID,2023-04-19 17:19:44,overcast clouds
Duluth,46.7833,-92.1066,39.07,77,75,26.46,US,2023-04-19 17:15:17,broken clouds
Portland,45.5234,-122.6762,46.29,89,75,8.99,US,2023-04-19 17:15:43,moderate rain
Lusaka,-15.4067,28.2871,68.25,78,0,5.75,ZM,2023-04-19 17:17:29,clear sky
Eydhafushi,5.1033,73.0708,83.64,71,15,2.06,MV,2023-04-19 17:19:44,few clouds
Qusar,41.4273,48.4289,49.78,83,7,4.97,AZ,2023-04-19 17:19:44,clear sky
Hayrabolu,41.2131,27.1069,51.28,85,56,4.68,TR,2023-04-19 17:19:44,broken clouds
Geraldton,-28.7667,114.6,61.21,55,47,5.75,AU,2023-04-19 17:15:40,scattered clouds
Trinidad,-14.8333,-64.9,78.82,86,81,6.49,BO,2023-04-19 17:19:44,broken clouds
Cabo San Lucas,22.8909,-109.9124,82.62,69,40,9.22,MX,2023-04-19 17:16:27,scattered clouds
Santa Rosa,14.3122,121.1114,84.18,86,1,3.24,PH,2023-04-19 17:19:44,clear sky
Freeport,40.6576,-73.5832,59.41,44,40,16.11,US,2023-04-19 17:19:02,scattered clouds
Beloha,-25.1667,45.05,73.4,86,96,13.96,MG,2023-04-19 17:19:44,overcast clouds
Hofn,64.2539,-15.2082,48.22,93,75,5.75,IS,2023-04-19 17:19:44,fog
Bocana De Paiwas,12.7857,-85.1227,89.02,43,85,9.51,NI,2023-04-19 17:19:44,overcast clouds
Nioro,13.35,-15.75,104.23,13,46,10.51,GM,2023-04-19 17:18:12,scattered clouds
Maldonado,-34.6667,-54.9167,58.39,77,98,14.18,UY,2023-04-19 17:19:45,overcast clouds
Altay,47.8667,88.1167,28.17,64,74,3.31,CN,2023-04-19 17:19:45,broken clouds
Roald,62.5833,6.1333,61.72,62,0,10.36,NO,2023-04-19 17:19:45,clear sky
Ronneby,56.21,15.276,50.5,37,0,25.32,SE,2023-04-19 17:19:45,clear sky
Kupino,54.3663,77.2981,28.87,43,11,7.25,RU,2023-04-19 17:19:45,few clouds
Kirakira,-10.4544,161.9205,77.04,84,50,6.24,SB,2023-04-19 17:19:45,scattered clouds
Dingle,10.9995,122.6711,78.26,76,21,4.12,PH,2023-04-19 17:19:45,few clouds
Paranaiba,-19.6772,-51.1908,72.68,79,100,7.52,BR,2023-04-19 17:19:45,overcast clouds
Las Palmas,28.4204,-14.0131,70.59,49,20,14.97,ES,2023-04-19 17:19:45,few clouds
Cervo,43.6702,-7.4101,59.23,77,5,10.27,ES,2023-04-19 17:19:45,clear sky
Acapulco,16.8634,-99.8901,85.82,66,0,6.91,MX,2023-04-19 17:19:46,clear sky
Rocha,-34.4833,-54.3333,53.65,86,100,9.73,UY,2023-04-19 17:19:46,overcast clouds
Puerto Del Rosario,28.5004,-13.8627,73.15,49,20,14.97,ES,2023-04-19 17:19:46,few clouds
Bani Walid,31.7566,13.9942,81.75,17,37,11.81,LY,2023-04-19 17:19:46,scattered clouds
Clarksburg,39.2807,-80.3445,71.71,31,0,6.91,US,2023-04-19 17:19:46,clear sky
Kizilskoye,52.7255,58.8937,47.95,63,98,3.02,RU,2023-04-19 17:19:46,overcast clouds
Bolobo,-2.1667,16.2333,82.65,65,100,2.64,CD,2023-04-19 17:19:46,overcast clouds
Kikwit,-5.041,18.8162,80.37,65,69,3.58,CD,2023-04-19 17:19:46,broken clouds
Ferme-Neuve,46.7001,-75.4493,33.51,71,100,8.21,CA,2023-04-19 17:19:46,overcast clouds
Saint-Georges,12.0564,-61.7485,83.88,70,20,24.16,GD,2023-04-19 17:19:46,few clouds
Trincomalee,8.5711,81.2335,82.56,80,3,8.93,LK,2023-04-19 17:19:46,clear sky
Pimentel,-6.8367,-79.9342,86.29,54,75,13.8,PE,2023-04-19 17:19:46,broken clouds
Copiapo,-27.3667,-70.3333,65.89,24,0,6.67,CL,2023-04-19 17:17:09,clear sky
Hasaki,35.7333,140.8333,61.21,90,100,9.24,JP,2023-04-19 17:19:47,overcast clouds
Horqueta,-23.3428,-57.0597,76.15,50,0,6.96,PY,2023-04-19 17:19:47,clear sky
Takaungu,-3.6837,39.8566,79.29,81,38,12.91,KE,2023-04-19 17:19:47,scattered clouds
Alice Springs,-23.7,133.8833,51.35,82,0,6.91,AU,2023-04-19 17:19:47,clear sky
Blind River,46.1834,-82.9582,37.51,57,50,7.02,CA,2023-04-19 17:19:47,scattered clouds
Roura,4.7263,-52.3274,75.11,100,100,0.0,GF,2023-04-19 17:19:47,moderate rain
Cayenne,4.9333,-52.3333,75.24,100,100,0.0,GF,2023-04-19 17:19:47,moderate rain
Bilibino,68.0546,166.4372,15.76,95,100,2.95,RU,2023-04-19 17:19:47,overcast clouds
Mount Gambier,-37.8333,140.7667,52.99,81,75,4.56,AU,2023-04-19 17:19:47,broken clouds
Jumla,29.2747,82.1838,51.85,73,94,4.29,NP,2023-04-19 17:19:47,overcast clouds
Emerald,-23.5333,148.1667,62.35,83,5,8.34,AU,2023-04-19 17:19:47,clear sky
Lexington,37.9887,-84.4777,78.12,29,0,14.97,US,2023-04-19 17:19:43,clear sky
Guerande,47.3291,-2.4283,65.62,72,5,4.18,FR,2023-04-19 17:19:47,clear sky
Olinda,-8.0089,-34.8553,87.53,62,40,10.36,BR,2023-04-19 17:19:47,scattered clouds
Sisophon,13.5859,102.9737,84.97,69,44,6.49,KH,2023-04-19 17:19:48,scattered clouds
Quthing,-30.4,27.7003,61.05,29,0,2.42,LS,2023-04-19 17:19:48,clear sky
Sumbe,-11.2061,13.8437,82.42,85,70,4.99,AO,2023-04-19 17:19:48,broken clouds
Zonguldak,41.25,31.8333,47.61,93,81,0.92,TR,2023-04-19 17:19:48,broken clouds
Middleton,53.55,-2.2,58.91,44,35,15.84,GB,2023-04-19 17:19:48,scattered clouds
Gagret,31.6667,76.0667,66.61,65,52,8.37,IN,2023-04-19 17:19:48,broken clouds
Nishihara,26.1842,127.7558,70.88,94,75,8.05,JP,2023-04-19 17:19:48,thunderstorm
Simbahan,6.3032,120.5836,82.67,75,100,2.06,PH,2023-04-19 17:19:48,overcast clouds
Jacksonville,30.3322,-81.6556,83.05,33,75,11.5,US,2023-04-19 17:18:33,broken clouds
Euclides Da Cunha,-10.5075,-39.0158,94.93,30,99,3.02,BR,2023-04-19 17:19:48,overcast clouds
Ocampo,21.65,-101.5,73.99,15,85,14.12,MX,2023-04-19 17:19:49,overcast clouds
Shubarkuduk,49.1447,56.4872,50.34,46,97,6.62,KZ,2023-04-19 17:19:49,overcast clouds
Esso,55.9333,158.7,18.16,99,97,2.35,RU,2023-04-19 17:19:49,overcast clouds
Kahului,20.8947,-156.47,73.85,92,100,21.85,US,2023-04-19 17:19:49,moderate rain
Pekin,39.9075,116.3972,67.89,35,85,10.18,CN,2023-04-19 17:18:42,overcast clouds
Norfolk,42.1668,-71.2495,50.79,51,45,5.01,US,2023-04-19 17:19:49,scattered clouds
Whitehorse,60.7161,-135.0538,36.37,80,75,0.0,CA,2023-04-19 17:19:49,broken clouds
Provideniya,64.3833,-173.3,23.4,93,100,3.58,RU,2023-04-19 17:19:49,overcast clouds
Vardo,70.3705,31.1107,39.18,75,75,21.85,NO,2023-04-19 17:19:49,broken clouds
Rosario Oeste,-14.8361,-56.4275,80.91,82,100,3.94,BR,2023-04-19 17:19:49,overcast clouds
Port Hardy,50.6996,-127.4199,40.91,92,100,8.97,CA,2023-04-19 17:15:24,light rain
Bernalillo,35.05,-106.6673,70.66,14,20,13.8,US,2023-04-19 17:19:49,few clouds
Araouane,18.9048,-3.5265,101.86,10,88,7.18,ML,2023-04-19 17:19:49,overcast clouds
Sinnamary,5.3833,-52.95,80.71,81,51,8.66,GF,2023-04-19 17:19:50,light rain
Rorvik,64.8621,11.2373,51.78,71,0,3.44,NO,2023-04-19 17:19:50,clear sky
Kruisfontein,-34.0033,24.7314,68.27,53,100,3.8,ZA,2023-04-19 17:19:50,overcast clouds
Vanderhoof,54.0166,-124.0198,39.27,64,12,3.09,CA,2023-04-19 17:19:50,few clouds
Price,39.5994,-110.8107,40.12,28,0,16.11,US,2023-04-19 17:15:48,clear sky
Cockburn Town,21.4612,-71.1419,78.48,78,27,13.09,TC,2023-04-19 17:19:50,light rain
San Andres,12.5847,-81.7006,87.82,58,20,13.8,CO,2023-04-19 17:19:50,few clouds
Maarianhamina,60.0973,19.9348,48.06,40,0,10.36,AX,2023-04-19 17:19:50,clear sky
Unity,52.4501,-109.1682,28.26,66,100,15.26,CA,2023-04-19 17:19:50,overcast clouds
Mayo,38.8876,-76.5119,69.35,39,0,10.36,US,2023-04-19 17:19:51,clear sky
Egvekinot,66.3167,-179.1667,17.96,98,100,5.37,RU,2023-04-19 17:19:51,overcast clouds
Inta,66.0317,60.1659,30.96,95,100,13.11,RU,2023-04-19 17:19:51,overcast clouds
Imbituba,-28.24,-48.6703,75.85,33,4,6.87,BR,2023-04-19 17:19:51,clear sky
Sorong,-0.8833,131.25,78.85,86,80,4.27,ID,2023-04-19 17:19:51,broken clouds
Ustye,59.6304,39.736,43.0,69,2,6.42,RU,2023-04-19 17:19:51,clear sky
Sisimiut,66.9395,-53.6735,19.74,79,100,5.19,GL,2023-04-19 17:19:51,overcast clouds
Sabirabad,40.0095,48.4752,57.65,66,54,11.39,AZ,2023-04-19 17:19:51,broken clouds
Lubumbashi,-11.6609,27.4794,64.02,95,63,3.96,CD,2023-04-19 17:19:51,broken clouds
Yeppoon,-23.1333,150.7333,67.78,69,69,13.58,AU,2023-04-19 17:19:51,broken clouds
Menongue,-14.6585,17.691,72.18,51,82,5.14,AO,2023-04-19 17:19:51,broken clouds
Joshimath,30.5667,79.5667,55.29,93,100,2.01,IN,2023-04-19 17:19:51,overcast clouds
Lososina,48.9975,140.3106,38.7,80,77,2.68,RU,2023-04-19 17:19:51,broken clouds
Rosario,-32.9468,-60.6393,75.94,37,0,26.46,AR,2023-04-19 17:16:42,clear sky
Hovd,48.0056,91.6419,30.9,25,0,10.67,MN,2023-04-19 17:19:51,clear sky
Sokoto,13.0609,5.239,104.18,16,99,8.28,NG,2023-04-19 17:19:52,overcast clouds
Ambon,-3.6954,128.1814,77.14,94,20,6.91,ID,2023-04-19 17:19:52,few clouds
Kutum,14.2,24.6667,86.4,9,6,6.85,SD,2023-04-19 17:19:52,clear sky
Martinsburg,39.4562,-77.9639,71.28,28,0,6.91,US,2023-04-19 17:14:53,clear sky
Gweta,-20.1833,25.2333,77.2,17,1,6.08,BW,2023-04-19 17:19:52,clear sky
Dezhou,37.4486,116.2925,69.08,57,9,16.89,CN,2023-04-19 17:19:52,clear sky
Port Macquarie,-31.4333,152.9167,57.88,82,62,6.29,AU,2023-04-19 17:19:52,broken clouds
Sao Jose Da Coroa Grande,-8.8978,-35.1478,85.44,67,95,11.16,BR,2023-04-19 17:19:52,overcast clouds
Kautokeino,69.0125,23.0412,37.6,89,91,13.18,NO,2023-04-19 17:19:52,overcast clouds
Tieling,42.2931,123.8414,64.72,28,100,18.63,CN,2023-04-19 17:19:52,overcast clouds
Tselinnoye,53.0833,85.6667,14.76,93,41,9.78,RU,2023-04-19 17:19:52,scattered clouds
Bucerias,20.75,-105.3333,78.78,69,0,5.75,MX,2023-04-19 17:16:10,clear sky
Temiscaming,46.7212,-79.0971,31.51,69,94,5.75,CA,2023-04-19 17:19:52,overcast clouds
Surin,14.8818,103.4936,90.91,88,57,14.09,TH,2023-04-19 17:19:52,broken clouds
Road Town,18.4167,-64.6167,84.29,61,40,11.5,VG,2023-04-19 17:18:06,scattered clouds
Beira,-19.8436,34.8389,77.09,83,20,6.91,MZ,2023-04-19 17:19:53,few clouds
Galle,6.0367,80.217,81.32,80,24,3.31,LK,2023-04-19 17:19:53,few clouds
Saint Anthony,45.0205,-93.218,43.14,83,100,21.85,US,2023-04-19 17:19:53,overcast clouds
Agucadoura,41.4318,-8.7804,74.32,74,5,4.41,PT,2023-04-19 17:19:53,clear sky
Tocopilla,-22.092,-70.1979,72.09,71,15,7.23,CL,2023-04-19 17:19:53,few clouds
Iskateley,67.6803,53.1512,31.06,93,100,16.15,RU,2023-04-19 17:19:53,overcast clouds
Gondanglegi,-7.7479,112.0132,75.69,93,42,6.04,ID,2023-04-19 17:19:53,scattered clouds
Pringsewu,-5.3582,104.9744,74.73,98,57,3.09,ID,2023-04-19 17:19:53,broken clouds
Kungalv,57.871,11.9805,57.45,36,8,9.31,SE,2023-04-19 17:19:54,clear sky
Margate,51.3813,1.3862,53.31,68,8,10.0,GB,2023-04-19 17:19:54,clear sky
Benguela,-12.5763,13.4055,84.13,74,25,5.95,AO,2023-04-19 17:19:54,scattered clouds
Bocaiuva,-17.1078,-43.815,86.05,45,63,9.1,BR,2023-04-19 17:16:07,broken clouds
Marsh Harbour,26.5412,-77.0636,74.89,66,100,14.99,BS,2023-04-19 17:19:54,overcast clouds
Virbhadra,30.0712,78.2819,72.61,61,100,9.28,IN,2023-04-19 17:19:54,overcast clouds
Charters Towers,-20.1,146.2667,69.08,85,0,5.55,AU,2023-04-19 17:19:54,clear sky
Karlskrona,56.1616,15.5866,50.45,52,0,15.84,SE,2023-04-19 17:16:15,clear sky
Prince Rupert,54.3161,-130.3201,44.4,62,17,5.08,CA,2023-04-19 17:15:42,few clouds
Verkhoyansk,67.5447,133.385,-7.44,100,46,3.13,RU,2023-04-19 17:19:55,scattered clouds
Taiyuan,37.8694,112.5603,69.66,46,0,4.47,CN,2023-04-19 17:19:19,clear sky
Half Moon Bay,37.4636,-122.4286,57.6,60,0,13.8,US,2023-04-19 17:19:29,clear sky
Loukhi,66.0764,33.0381,36.18,98,98,8.01,RU,2023-04-19 17:19:55,overcast clouds
Klaksvik,62.2266,-6.589,50.92,82,39,13.56,FO,2023-04-19 17:19:55,scattered clouds
Tazmalt,36.3868,4.3989,74.86,44,97,7.14,DZ,2023-04-19 17:19:55,overcast clouds
Hisor,38.525,68.5512,53.35,67,43,1.21,TJ,2023-04-19 17:19:55,scattered clouds
Desaguadero,-16.5656,-69.0417,56.93,30,22,9.19,PE,2023-04-19 17:19:55,few clouds
Terrace Bay,48.7834,-87.1,33.71,75,10,3.65,CA,2023-04-19 17:19:55,clear sky
Hamilton,39.1834,-84.5333,73.99,41,0,9.22,US,2023-04-19 17:19:55,clear sky
Hirara,24.8,125.2833,76.78,89,100,21.18,JP,2023-04-19 17:15:51,overcast clouds
Carutapera,-1.195,-46.02,78.58,88,100,3.87,BR,2023-04-19 17:19:55,overcast clouds
Raudeberg,61.9875,5.1352,52.47,71,17,20.94,NO,2023-04-19 17:19:56,few clouds
Karratha,-20.7377,116.8463,76.1,33,55,11.48,AU,2023-04-19 17:19:56,broken clouds
Skjervoy,70.0311,20.9714,48.2,87,100,30.76,NO,2023-04-19 17:19:56,light rain
Meulaboh,4.1363,96.1285,76.42,92,100,3.53,ID,2023-04-19 17:19:56,moderate rain
Sonoita,31.85,-112.8333,72.68,21,1,8.99,MX,2023-04-19 17:19:56,clear sky
Chernyshevskiy,63.0128,112.4714,12.13,91,100,4.43,RU,2023-04-19 17:15:38,overcast clouds
Grand Gaube,-20.0064,57.6608,80.38,76,9,5.99,MU,2023-04-19 17:19:56,clear sky
Amazar,53.858,120.875,26.67,92,100,11.34,RU,2023-04-19 17:19:57,light snow
Saint-Pierre,-21.3393,55.4781,78.48,73,0,3.44,RE,2023-04-19 17:15:44,clear sky
Talnakh,69.4865,88.3972,6.21,92,99,4.38,RU,2023-04-19 17:15:15,overcast clouds
Makat,47.6469,53.3463,56.23,30,98,10.13,KZ,2023-04-19 17:19:57,overcast clouds
Liverpool,53.4106,-2.9779,59.61,40,0,19.57,GB,2023-04-19 17:19:57,clear sky
Pabrade,55.0,25.7833,52.66,66,100,10.56,LT,2023-04-19 17:19:57,overcast clouds
Nuristan,35.3,70.8333,27.5,89,100,6.98,AF,2023-04-19 17:19:57,snow
Maceio,-9.6658,-35.7353,92.64,62,40,6.91,BR,2023-04-19 17:16:40,scattered clouds
Bima,-8.4667,118.7167,75.2,95,52,3.89,ID,2023-04-19 17:19:57,broken clouds
Kismayo,-0.3582,42.5454,83.01,74,100,13.13,SO,2023-04-19 17:19:57,overcast clouds
Mosquera,4.7059,-74.2302,66.29,72,75,8.05,CO,2023-04-19 17:19:57,broken clouds
Nemuro,43.3236,145.575,38.28,90,37,7.16,JP,2023-04-19 17:19:57,scattered clouds
Rongcheng,30.634,117.8517,66.72,92,100,4.52,CN,2023-04-19 17:19:58,overcast clouds
Coronel Vivida,-25.9797,-52.5678,65.88,53,30,12.28,BR,2023-04-19 17:19:58,scattered clouds
Slave Lake,55.2834,-114.769,35.58,87,100,6.91,CA,2023-04-19 17:19:58,overcast clouds
Buraydah,26.326,43.975,79.25,32,1,8.16,SA,2023-04-19 17:19:32,clear sky
Conde,-7.2597,-34.9075,89.06,58,40,6.91,BR,2023-04-19 17:19:58,scattered clouds
Kyshtovka,56.555,76.6271,24.91,83,72,5.73,RU,2023-04-19 17:19:58,broken clouds
Eregli,37.5133,34.0467,61.59,48,95,19.24,TR,2023-04-19 17:19:58,overcast clouds
Ogbomosho,8.133,4.25,81.81,73,90,6.69,NG,2023-04-19 17:19:59,moderate rain
Portage,41.1667,-81.1998,57.61,50,0,4.0,US,2023-04-19 17:19:59,clear sky
Aberfeldy,56.62,-3.8645,54.48,52,1,10.38,GB,2023-04-19 17:19:59,clear sky
Orlik,52.5178,99.825,-0.69,88,51,1.25,RU,2023-04-19 17:19:59,broken clouds
Yilan,24.757,121.753,79.36,99,100,4.74,TW,2023-04-19 17:19:59,overcast clouds
Itarema,-2.9248,-39.9167,84.22,74,78,5.93,BR,2023-04-19 17:15:44,light rain
Taksimo,56.3444,114.8794,19.81,68,100,4.47,RU,2023-04-19 17:19:59,overcast clouds
Chikwawa,-16.0335,34.8009,71.55,85,26,2.98,MW,2023-04-19 17:19:59,scattered clouds
Salekhard,66.53,66.6019,11.12,95,66,4.41,RU,2023-04-19 17:20:00,broken clouds
Nelson Bay,-32.7167,152.15,64.0,97,92,4.0,AU,2023-04-19 17:20:00,overcast clouds
Cananea,30.95,-110.3,64.87,15,0,13.67,MX,2023-04-19 17:20:00,clear sky
Sovetskiy,61.3614,63.5842,24.98,89,14,4.72,RU,2023-04-19 17:15:53,few clouds
La Union,-5.4,-80.75,85.44,55,92,5.61,PE,2023-04-19 17:20:00,overcast clouds
Estelle,29.8458,-90.1067,80.01,55,40,13.8,US,2023-04-19 17:20:01,scattered clouds
Vila Velha,-20.3297,-40.2925,93.94,62,20,8.05,BR,2023-04-19 17:20:01,few clouds
Hirekerur,14.4667,75.3833,75.29,84,0,11.59,IN,2023-04-19 17:20:01,clear sky
Srandakan,-7.9386,110.2506,78.42,86,25,3.2,ID,2023-04-19 17:20:01,scattered clouds
Lazaro Cardenas,17.9583,-102.2,83.17,58,87,7.36,MX,2023-04-19 17:20:01,overcast clouds
Arrecife,28.963,-13.5477,73.38,53,20,17.27,ES,2023-04-19 17:20:02,few clouds
Marktoberdorf,47.7833,10.6167,42.22,60,75,16.11,DE,2023-04-19 17:20:02,moderate rain
Antofagasta,-23.65,-70.4,67.28,68,27,8.08,CL,2023-04-19 17:18:26,scattered clouds
Raymond,43.9015,-70.4703,48.51,53,70,5.32,US,2023-04-19 17:20:02,broken clouds
Taiping,4.85,100.7333,76.57,96,87,1.32,MY,2023-04-19 17:20:02,overcast clouds
Yarim,14.298,44.3779,60.24,63,83,5.35,YE,2023-04-19 17:20:02,light rain
Bassila,9.0081,1.6654,93.69,35,74,5.7,BJ,2023-04-19 17:20:03,broken clouds
Santa Fe,-31.6333,-60.7,76.28,38,18,11.01,AR,2023-04-19 17:20:03,light rain
Kathmandu,27.7167,85.3167,73.83,44,20,5.75,NP,2023-04-19 17:20:03,few clouds
Buzmeyin,38.0507,58.2056,60.53,21,1,9.22,TM,2023-04-19 17:20:03,clear sky
Vila,42.0304,-8.1588,63.7,54,2,6.87,PT,2023-04-19 17:20:04,clear sky
Ilulissat,69.2167,-51.1,23.02,80,75,8.05,GL,2023-04-19 17:15:15,light shower snow
Iquitos,-3.7481,-73.2472,89.64,74,40,6.91,PE,2023-04-19 17:17:51,scattered clouds
Tautira,-17.7333,-149.15,80.85,81,74,15.23,PF,2023-04-19 17:20:04,light rain
Inuvik,68.3499,-133.7218,13.06,79,100,5.75,CA,2023-04-19 17:20:05,light snow
Aklavik,68.2191,-135.0107,10.4,79,100,6.91,CA,2023-04-19 17:20:05,light snow
Atbasar,51.8,68.3333,31.44,90,35,6.73,KZ,2023-04-19 17:20:06,scattered clouds
Mpanda,-6.3655,31.0409,67.24,95,44,1.97,TZ,2023-04-19 17:20:06,scattered clouds
Rafai,4.95,23.9167,81.05,54,96,2.35,CF,2023-04-19 17:20:06,overcast clouds
Port Augusta,-32.5,137.7667,56.25,67,2,9.26,AU,2023-04-19 17:15:57,clear sky
Praia,14.9215,-23.5087,79.34,57,75,23.02,CV,2023-04-19 17:20:07,broken clouds
Tura,25.5198,90.2201,81.81,37,0,7.63,IN,2023-04-19 17:20:07,clear sky
Alyangula,-13.8483,136.4192,79.2,83,27,13.78,AU,2023-04-19 17:20:07,light rain
Axim,4.8699,-2.2405,85.37,68,95,9.51,GH,2023-04-19 17:20:07,overcast clouds
Pangkalanbuun,-2.6833,111.6167,76.19,96,100,2.24,ID,2023-04-19 17:20:07,overcast clouds
Staryy Nadym,65.6118,72.6842,12.74,92,87,6.49,RU,2023-04-19 17:20:07,overcast clouds
Anderson,34.5334,-82.6499,82.26,27,0,8.05,US,2023-04-19 17:20:07,clear sky
Adre,13.4667,22.2,91.45,9,0,3.85,TD,2023-04-19 17:20:08,clear sky
Ojinaga,29.5667,-104.4167,84.42,17,0,5.75,MX,2023-04-19 17:20:08,clear sky
Reporoa,-38.4333,176.35,57.45,92,98,1.3,NZ,2023-04-19 17:20:08,overcast clouds
Santa Cruz,-17.8,-63.1667,71.06,94,100,14.97,BO,2023-04-19 17:20:08,overcast clouds
Beroroha,-21.6667,45.1667,74.93,79,54,1.5,MG,2023-04-19 17:20:08,light rain
Bereda,43.2686,-7.5406,75.15,33,0,3.74,ES,2023-04-19 17:20:08,clear sky
Kurchum,48.5722,83.6542,30.22,69,86,9.51,KZ,2023-04-19 17:20:08,overcast clouds
Moron,-34.6534,-58.6198,65.01,51,81,14.67,AR,2023-04-19 17:20:09,broken clouds
Kendari,-3.945,122.4989,75.34,96,100,3.29,ID,2023-04-19 17:20:09,overcast clouds
Boali,4.8005,18.1275,78.93,73,96,8.19,CF,2023-04-19 17:16:10,light rain
Saint-Joseph,-21.3667,55.6167,77.38,82,40,12.01,RE,2023-04-19 17:20:09,scattered clouds
Bayshore Gardens,27.4253,-82.5904,84.24,46,0,12.66,US,2023-04-19 17:20:09,clear sky
Tabora,-5.0167,32.8,66.56,86,30,4.27,TZ,2023-04-19 17:20:09,scattered clouds
Nyagan,62.1406,65.3936,26.74,94,55,5.23,RU,2023-04-19 17:20:09,broken clouds
Porbandar,21.6422,69.6093,82.38,61,2,11.12,IN,2023-04-19 17:20:09,clear sky
Walvis Bay,-22.9575,14.5053,69.87,60,24,20.38,NA,2023-04-19 17:20:09,few clouds
